[
  {
    "id": 1,
    "name": "Natur- und Tierpark Brüggen",
    "description": "Der Natur- und Tierpark Brüggen ist ein Zoo mit umfangreichem Spiel- und Freizeitbereich!",
    "street": "Brachter Str. 98",
    "city": "Brüggen",
    "zipCode": "41379",
    "country": "Germany",
    "lat": "51.261640",
    "lng": "6.181360",
    "openingHours": "09:00 - 18:00",
    "website": "https://natur-und-tierpark-brueggen.de",
    "isFreeOfCharge": false,
    "isBookmarked": false
  },
  {
    "id": 2,
    "name": "Freizeitpark Efteling",
    "description": "Efteling, der märchenhafteste Freizeitpark Europas, ist eine besondere Welt für die ganze Familie!",
    "street": "Europalaan 1",
    "city": "KW Kaatsheuvel",
    "zipCode": "5171",
    "country": "Netherlands",
    "lat": "51.650654",
    "lng": "5.049746",
    "openingHours": "10:00 - 18:00",
    "website": "https://www.efteling.com/",
    "isFreeOfCharge": false,
    "isBookmarked": false
  },
  {
    "id": 3,
    "name": "Bunter Garten",
    "description": "Der Bunte Garten ist ein Stadtpark in der Innenstadt von Mönchengladbach.",
    "street": "Bettrather Str.",
    "city": "Mönchengladbach",
    "zipCode": "41061",
    "country": "Germany",
    "lat": "51.208633634717536",
    "lng": "6.435186290185724",
    "openingHours": "permanent",
    "website": "https://buntergarten.de/",
    "isFreeOfCharge": true,
    "isBookmarked": false
  },
  {
    "id": 4,
    "name": "Aquazoo Löbbecke Museum",
    "description": "Das Aquazoo Löbbecke Museum ist eine Einheit aus Zoo und Naturkundemuseum.",
    "street": "Kaiserswerther Str. 380",
    "city": "Düsseldorf",
    "zipCode": "40474",
    "country": "Germany",
    "lat": "51.25667175577751",
    "lng": "6.750102542689271",
    "openingHours": "10:00 - 18:00",
    "website": "https://www.duesseldorf.de/aquazoo.html",
    "isFreeOfCharge": false,
    "isBookmarked": false
  },
  {
    "id": 5,
    "name": "Phantasialand",
    "description": "Das Phantasialand ist ein Freizeitpark in Brühl bei Köln, Nordrhein-Westfalen.",
    "street": "Berggeiststraße 31-41",
    "city": "Brühl",
    "zipCode": "50321",
    "country": "Germany",
    "lat": "50.80169357837178",
    "lng": "6.876552612043956",
    "openingHours": "09:00 - 18:00",
    "website": "https://www.phantasialand.de/",
    "isFreeOfCharge": false,
    "isBookmarked": false
  },
  {
    "id": 6,
    "name": "Disneyland Paris",
    "description": "Disneyland Paris ist ein 2.230 Hektar großer Freizeitkomplex.",
    "street": "Bd de Parc",
    "city": "Coupvray",
    "zipCode": "77700",
    "country": "France",
    "lat": "48.867576330671525",
    "lng": "2.7836573714553126",
    "openingHours": "09:00 - 20:00",
    "website": "https://www.disneylandparis.com/",
    "isFreeOfCharge": false,
    "isBookmarked": false
  },
  {
    "id": 7,
    "name": "Zoo Krefeld",
    "description": "Der Krefelder Zoo beherbergt ca. 1000 Tiere aus rund 170 verschiedenen Arten.",
    "street": "Uerdinger Str. 377",
    "city": "Krefeld",
    "zipCode": "47800",
    "country": "Germany",
    "lat": "51.341139436990616",
    "lng": "6.599526071527136",
    "openingHours": "09:00 - 19:00",
    "website": "https://www.zookrefeld.de/",
    "isFreeOfCharge": false,
    "isBookmarked": false
  }
]
